{
"type": "FeatureCollection",
                                                                                
"features": [
{ "type": "Feature", "properties": { "CITIESX020": 595.000000, "FEATURE": "Populated Place", "NAME": "Mountlake Terrace", "POP_RANGE": "10,000 - 49,999", "POP_2000": 20362, "FIPS55": "47490", "COUNTY": "Snohomish County", "FIPS": "53061", "STATE": "WA", "STATE_FIPS": "53", "DISPLAY": 0 }, "geometry": { "type": "Point", "coordinates": [ -122.308746337890625, 47.788150787353516 ] } },
{ "type": "Feature", "properties": { "CITIESX020": 16690.000000, "FEATURE": "Populated Place", "NAME": "Davis", "POP_RANGE": "50,000 - 99,999", "POP_2000": 60308, "FIPS55": "18100", "COUNTY": "Yolo County", "FIPS": "06113", "STATE": "CA", "STATE_FIPS": "06", "DISPLAY": 0 }, "geometry": { "type": "Point", "coordinates": [ -121.740516662597656, 38.544902801513672 ] } },
{ "type": "Feature", "properties": { "CITIESX020": 18144.000000, "FEATURE": "County Seat", "NAME": "San Francisco", "POP_RANGE": "500,000 - 999,999", "POP_2000": 776733, "FIPS55": "67000", "COUNTY": "San Francisco County", "FIPS": "06075", "STATE": "CA", "STATE_FIPS": "06", "DISPLAY": 0 }, "geometry": { "type": "Point", "coordinates": [ -122.419410705566406, 37.774932861328125 ] } },
{ "type": "Feature", "properties": { "CITIESX020": 19300.000000, "FEATURE": "County Seat", "NAME": "San Jose", "POP_RANGE": "500,000 - 999,999", "POP_2000": 894943, "FIPS55": "68000", "COUNTY": "Santa Clara County", "FIPS": "06085", "STATE": "CA", "STATE_FIPS": "06", "DISPLAY": 0 }, "geometry": { "type": "Point", "coordinates": [ -121.89495849609375, 37.339382171630859 ] } },
{ "type": "Feature", "properties": { "CITIESX020": 21071.000000, "FEATURE": "Populated Place", "NAME": "Monterey", "POP_RANGE": "10,000 - 49,999", "POP_2000": 29674, "FIPS55": "48872", "COUNTY": "Monterey County", "FIPS": "06053", "STATE": "CA", "STATE_FIPS": "06", "DISPLAY": 0 }, "geometry": { "type": "Point", "coordinates": [ -121.894676208496094, 36.600242614746094 ] } },
{ "type": "Feature", "properties": { "CITIESX020": 24996.000000, "FEATURE": "County Seat", "NAME": "Mountain Home", "POP_RANGE": "10,000 - 49,999", "POP_2000": 11012, "FIPS55": "47390", "COUNTY": "Baxter County", "FIPS": "05005", "STATE": "AR", "STATE_FIPS": "05", "DISPLAY": 0 }, "geometry": { "type": "Point", "coordinates": [ -92.385162353515625, 36.335350036621094 ] } },
{ "type": "Feature", "properties": { "CITIESX020": 26582.000000, "FEATURE": "Populated Place", "NAME": "Cordova", "POP_RANGE": "Undetermined", "POP_2000": -99999, "FIPS55": "17100", "COUNTY": "Shelby County", "FIPS": "47157", "STATE": "TN", "STATE_FIPS": "47", "DISPLAY": 0 }, "geometry": { "type": "Point", "coordinates": [ -89.776275634765625, 35.156005859375 ] } },
{ "type": "Feature", "properties": { "CITIESX020": 28023.000000, "FEATURE": "State Capital   County Seat", "NAME": "Atlanta", "POP_RANGE": "250,000 - 499,999", "POP_2000": 416474, "FIPS55": "04000", "COUNTY": "Fulton County", "FIPS": "13121", "STATE": "GA", "STATE_FIPS": "13", "DISPLAY": 0 }, "geometry": { "type": "Point", "coordinates": [ -84.387985229492188, 33.748996734619141 ] } },
{ "type": "Feature", "properties": { "CITIESX020": 29175.000000, "FEATURE": "County Seat", "NAME": "San Diego", "POP_RANGE": "1,000,000 - 9,999,999", "POP_2000": 1223400, "FIPS55": "66000", "COUNTY": "San Diego County", "FIPS": "06073", "STATE": "CA", "STATE_FIPS": "06", "DISPLAY": 0 }, "geometry": { "type": "Point", "coordinates": [ -117.157257080078125, 32.715328216552734 ] } },
{ "type": "Feature", "properties": { "CITIESX020": 31630.000000, "FEATURE": "County Seat", "NAME": "Valdosta", "POP_RANGE": "10,000 - 49,999", "POP_2000": 43724, "FIPS55": "78800", "COUNTY": "Lowndes County", "FIPS": "13185", "STATE": "GA", "STATE_FIPS": "13", "DISPLAY": 0 }, "geometry": { "type": "Point", "coordinates": [ -83.278480529785156, 30.83270263671875 ] } },
{ "type": "Feature", "properties": { "CITIESX020": 32737.000000, "FEATURE": "County Seat", "NAME": "Gainesville", "POP_RANGE": "50,000 - 99,999", "POP_2000": 95447, "FIPS55": "25175", "COUNTY": "Alachua County", "FIPS": "12001", "STATE": "FL", "STATE_FIPS": "12", "DISPLAY": 0 }, "geometry": { "type": "Point", "coordinates": [ -82.324821472167969, 29.651636123657227 ] } },
{ "type": "Feature", "properties": { "CITIESX020": 33373.000000, "FEATURE": "Populated Place", "NAME": "Metairie", "POP_RANGE": "Undetermined", "POP_2000": -99999, "FIPS55": "50115", "COUNTY": "Jefferson Parish", "FIPS": "22051", "STATE": "LA", "STATE_FIPS": "22", "DISPLAY": 1 }, "geometry": { "type": "Point", "coordinates": [ -90.153289794921875, 29.984670639038086 ] } },
{ "type": "Feature", "properties": { "CITIESX020": 33992.000000, "FEATURE": "County Seat", "NAME": "Vero Beach", "POP_RANGE": "10,000 - 49,999", "POP_2000": 17705, "FIPS55": "74150", "COUNTY": "Indian River County", "FIPS": "12061", "STATE": "FL", "STATE_FIPS": "12", "DISPLAY": 0 }, "geometry": { "type": "Point", "coordinates": [ -80.397270202636719, 27.638641357421875 ] } }
]
}
